[
  {
    "Id": "00000000-0000-0000-0000-000000000000",
    "LatLngId": "00000000-0000-0000-0000-000000000000",
    "Label": "Пригоризонтная обсерватория в Безводовке",
    "Description": null,
    "LatLng": {
      "Id": "00000000-0000-0000-0000-000000000000",
      "Lat": 50.846056,
      "Lng": 32.500382
    }
  },
  {
    "Id": "00000000-0000-0000-0000-000000000000",
    "LatLngId": "00000000-0000-0000-0000-000000000000",
    "Label": "Кемпинг «Древний Любеч и Wild Nature»",
    "Description": null,
    "LatLng": {
      "Id": "00000000-0000-0000-0000-000000000000",
      "Lat": 51.7134586641415,
      "Lng": 30.628908583894372
    }
  },
  {
    "Id": "00000000-0000-0000-0000-000000000000",
    "LatLngId": "00000000-0000-0000-0000-000000000000",
    "Label": "Ланжерон",
    "Description": null,
    "LatLng": {
      "Id": "00000000-0000-0000-0000-000000000000",
      "Lat": 46.670602,
      "Lng": 30.749404
    }
  },
  {
    "Id": "00000000-0000-0000-0000-000000000000",
    "LatLngId": "00000000-0000-0000-0000-000000000000",
    "Label": "Ужгород",
    "Description": null,
    "LatLng": {
      "Id": "00000000-0000-0000-0000-000000000000",
      "Lat": 48.3726,
      "Lng": 22.1742
    }
  },
  {
    "Id": "00000000-0000-0000-0000-000000000000",
    "LatLngId": "00000000-0000-0000-0000-000000000000",
    "Label": "Каменец-Подольская крепость",
    "Description": null,
    "LatLng": {
      "Id": "00000000-0000-0000-0000-000000000000",
      "Lat": 48.4024,
      "Lng": 26.3345
    }
  },
  {
    "Id": "00000000-0000-0000-0000-000000000000",
    "LatLngId": "00000000-0000-0000-0000-000000000000",
    "Label": "Мануфактура",
    "Description": null,
    "LatLng": {
      "Id": "00000000-0000-0000-0000-000000000000",
      "Lat": 50.271085,
      "Lng": 30.533806
    }
  },
  {
    "Id": "00000000-0000-0000-0000-000000000000",
    "LatLngId": "00000000-0000-0000-0000-000000000000",
    "Label": "Подгорецкий замок",
    "Description": null,
    "LatLng": {
      "Id": "00000000-0000-0000-0000-000000000000",
      "Lat": 49.942978,
      "Lng": 24.983752
    }
  },
  {
    "Id": "00000000-0000-0000-0000-000000000000",
    "LatLngId": "00000000-0000-0000-0000-000000000000",
    "Label": "​Украинское село",
    "Description": null,
    "LatLng": {
      "Id": "00000000-0000-0000-0000-000000000000",
      "Lat": 50.445809,
      "Lng": 30.047042
    }
  },
  {
    "Id": "00000000-0000-0000-0000-000000000000",
    "LatLngId": "00000000-0000-0000-0000-000000000000",
    "Label": "Лодочная база Вишенки",
    "Description": null,
    "LatLng": {
      "Id": "00000000-0000-0000-0000-000000000000",
      "Lat": 50.285111,
      "Lng": 30.685478
    }
  },
  {
    "Id": "00000000-0000-0000-0000-000000000000",
    "LatLngId": "00000000-0000-0000-0000-000000000000",
    "Label": "Остров Джарылгач",
    "Description": null,
    "LatLng": {
      "Id": "00000000-0000-0000-0000-000000000000",
      "Lat": 46.013271,
      "Lng": 33.064773
    }
  },
  {
    "Id": "00000000-0000-0000-0000-000000000000",
    "LatLngId": "00000000-0000-0000-0000-000000000000",
    "Label": "Зоопарк «12 месяцев»",
    "Description": null,
    "LatLng": {
      "Id": "00000000-0000-0000-0000-000000000000",
      "Lat": 50.736945,
      "Lng": 30.296303
    }
  },
  {
    "Id": "00000000-0000-0000-0000-000000000000",
    "LatLngId": "00000000-0000-0000-0000-000000000000",
    "Label": "Парк Александрия",
    "Description": null,
    "LatLng": {
      "Id": "00000000-0000-0000-0000-000000000000",
      "Lat": 49.813373,
      "Lng": 30.067365
    }
  },
  {
    "Id": "00000000-0000-0000-0000-000000000000",
    "LatLngId": "00000000-0000-0000-0000-000000000000",
    "Label": "Замок «Радомысль»",
    "Description": null,
    "LatLng": {
      "Id": "00000000-0000-0000-0000-000000000000",
      "Lat": 50.4775,
      "Lng": 29.216389
    }
  },
  {
    "Id": "00000000-0000-0000-0000-000000000000",
    "LatLngId": "00000000-0000-0000-0000-000000000000",
    "Label": "Голубое озеро",
    "Description": null,
    "LatLng": {
      "Id": "00000000-0000-0000-0000-000000000000",
      "Lat": 50.249177,
      "Lng": 30.560037
    }
  },
  {
    "Id": "00000000-0000-0000-0000-000000000000",
    "LatLngId": "00000000-0000-0000-0000-000000000000",
    "Label": "Вилково и 0 километр",
    "Description": null,
    "LatLng": {
      "Id": "00000000-0000-0000-0000-000000000000",
      "Lat": 45.39965,
      "Lng": 29.586897
    }
  },
  {
    "Id": "00000000-0000-0000-0000-000000000000",
    "LatLngId": "00000000-0000-0000-0000-000000000000",
    "Label": "Парк Киевская Русь",
    "Description": null,
    "LatLng": {
      "Id": "00000000-0000-0000-0000-000000000000",
      "Lat": 50.145642,
      "Lng": 30.474139
    }
  },
  {
    "Id": "00000000-0000-0000-0000-000000000000",
    "LatLngId": "00000000-0000-0000-0000-000000000000",
    "Label": "Непростое озерцо в Ходосовке",
    "Description": null,
    "LatLng": {
      "Id": "00000000-0000-0000-0000-000000000000",
      "Lat": 50.285193,
      "Lng": 30.519085
    }
  },
  {
    "Id": "00000000-0000-0000-0000-000000000000",
    "LatLngId": "00000000-0000-0000-0000-000000000000",
    "Label": "Канев",
    "Description": null,
    "LatLng": {
      "Id": "00000000-0000-0000-0000-000000000000",
      "Lat": 49.731267,
      "Lng": 31.515439
    }
  },
  {
    "Id": "00000000-0000-0000-0000-000000000000",
    "LatLngId": "00000000-0000-0000-0000-000000000000",
    "Label": "Тростянец",
    "Description": null,
    "LatLng": {
      "Id": "00000000-0000-0000-0000-000000000000",
      "Lat": 50.788975,
      "Lng": 32.816895
    }
  },
  {
    "Id": "00000000-0000-0000-0000-000000000000",
    "LatLngId": "00000000-0000-0000-0000-000000000000",
    "Label": "Батурин",
    "Description": null,
    "LatLng": {
      "Id": "00000000-0000-0000-0000-000000000000",
      "Lat": 51.342772,
      "Lng": 32.88526
    }
  },
  {
    "Id": "00000000-0000-0000-0000-000000000000",
    "LatLngId": "00000000-0000-0000-0000-000000000000",
    "Label": "Озеро Круглик",
    "Description": null,
    "LatLng": {
      "Id": "00000000-0000-0000-0000-000000000000",
      "Lat": 50.305498,
      "Lng": 30.437442
    }
  },
  {
    "Id": "00000000-0000-0000-0000-000000000000",
    "LatLngId": "00000000-0000-0000-0000-000000000000",
    "Label": "Голубые озера",
    "Description": null,
    "LatLng": {
      "Id": "00000000-0000-0000-0000-000000000000",
      "Lat": 51.963629,
      "Lng": 31.165874
    }
  },
  {
    "Id": "00000000-0000-0000-0000-000000000000",
    "LatLngId": "00000000-0000-0000-0000-000000000000",
    "Label": "Планерная гора",
    "Description": null,
    "LatLng": {
      "Id": "00000000-0000-0000-0000-000000000000",
      "Lat": 50.260665,
      "Lng": 30.529601
    }
  },
  {
    "Id": "00000000-0000-0000-0000-000000000000",
    "LatLngId": "00000000-0000-0000-0000-000000000000",
    "Label": "Карьер Высокий камень",
    "Description": null,
    "LatLng": {
      "Id": "00000000-0000-0000-0000-000000000000",
      "Lat": 50.36833,
      "Lng": 29.194107
    }
  },
  {
    "Id": "00000000-0000-0000-0000-000000000000",
    "LatLngId": "00000000-0000-0000-0000-000000000000",
    "Label": "Межигорье",
    "Description": null,
    "LatLng": {
      "Id": "00000000-0000-0000-0000-000000000000",
      "Lat": 50.611729,
      "Lng": 30.473524
    }
  },
  {
    "Id": "00000000-0000-0000-0000-000000000000",
    "LatLngId": "00000000-0000-0000-0000-000000000000",
    "Label": "Чигирин – казацкая столица",
    "Description": null,
    "LatLng": {
      "Id": "00000000-0000-0000-0000-000000000000",
      "Lat": 49.078166,
      "Lng": 32.657477
    }
  },
  {
    "Id": "00000000-0000-0000-0000-000000000000",
    "LatLngId": "00000000-0000-0000-0000-000000000000",
    "Label": "Тоннель любви",
    "Description": null,
    "LatLng": {
      "Id": "00000000-0000-0000-0000-000000000000",
      "Lat": 50.750497,
      "Lng": 26.043483
    }
  },
  {
    "Id": "00000000-0000-0000-0000-000000000000",
    "LatLngId": "00000000-0000-0000-0000-000000000000",
    "Label": "Букинский каньон. Одно из чудес Украины",
    "Description": null,
    "LatLng": {
      "Id": "00000000-0000-0000-0000-000000000000",
      "Lat": 49.093528,
      "Lng": 30.397611
    }
  },
  {
    "Id": "00000000-0000-0000-0000-000000000000",
    "LatLngId": "00000000-0000-0000-0000-000000000000",
    "Label": "Турбаза «Клевое место»",
    "Description": null,
    "LatLng": {
      "Id": "00000000-0000-0000-0000-000000000000",
      "Lat": 46.108903,
      "Lng": 30.501302
    }
  },
  {
    "Id": "00000000-0000-0000-0000-000000000000",
    "LatLngId": "00000000-0000-0000-0000-000000000000",
    "Label": "Место с видом на море. Киевское море",
    "Description": null,
    "LatLng": {
      "Id": "00000000-0000-0000-0000-000000000000",
      "Lat": 50.714697,
      "Lng": 30.391718
    }
  },
  {
    "Id": "00000000-0000-0000-0000-000000000000",
    "LatLngId": "00000000-0000-0000-0000-000000000000",
    "Label": "Гранитный каньон или маленькая Карелия",
    "Description": null,
    "LatLng": {
      "Id": "00000000-0000-0000-0000-000000000000",
      "Lat": 50.31509,
      "Lng": 29.093055
    }
  },
  {
    "Id": "00000000-0000-0000-0000-000000000000",
    "LatLngId": "00000000-0000-0000-0000-000000000000",
    "Label": "А вы видели такой Днепр?",
    "Description": null,
    "LatLng": {
      "Id": "00000000-0000-0000-0000-000000000000",
      "Lat": 50.10689,
      "Lng": 30.886273
    }
  },
  {
    "Id": "00000000-0000-0000-0000-000000000000",
    "LatLngId": "00000000-0000-0000-0000-000000000000",
    "Label": "База отдыха и биопарк «Золотой фазан»",
    "Description": null,
    "LatLng": {
      "Id": "00000000-0000-0000-0000-000000000000",
      "Lat": 49.416673,
      "Lng": 30.152909
    }
  },
  {
    "Id": "00000000-0000-0000-0000-000000000000",
    "LatLngId": "00000000-0000-0000-0000-000000000000",
    "Label": "Дениши. В гостях у скалолазов",
    "Description": null,
    "LatLng": {
      "Id": "00000000-0000-0000-0000-000000000000",
      "Lat": 50.201203,
      "Lng": 28.386878
    }
  },
  {
    "Id": "00000000-0000-0000-0000-000000000000",
    "LatLngId": "00000000-0000-0000-0000-000000000000",
    "Label": "Кицевская пустыня",
    "Description": null,
    "LatLng": {
      "Id": "00000000-0000-0000-0000-000000000000",
      "Lat": 50.001175,
      "Lng": 36.824473
    }
  },
  {
    "Id": "00000000-0000-0000-0000-000000000000",
    "LatLngId": "00000000-0000-0000-0000-000000000000",
    "Label": "Заброшенный командный пункт в Виннице",
    "Description": null,
    "LatLng": {
      "Id": "00000000-0000-0000-0000-000000000000",
      "Lat": 49.272201,
      "Lng": 28.491497
    }
  },
  {
    "Id": "00000000-0000-0000-0000-000000000000",
    "LatLngId": "00000000-0000-0000-0000-000000000000",
    "Label": "Железнодорожный клуб в Сновске",
    "Description": null,
    "LatLng": {
      "Id": "00000000-0000-0000-0000-000000000000",
      "Lat": 51.817157,
      "Lng": 31.936554
    }
  },
  {
    "Id": "00000000-0000-0000-0000-000000000000",
    "LatLngId": "00000000-0000-0000-0000-000000000000",
    "Label": "Трускавец",
    "Description": null,
    "LatLng": {
      "Id": "00000000-0000-0000-0000-000000000000",
      "Lat": 49.165,
      "Lng": 23.3018
    }
  },
  {
    "Id": "00000000-0000-0000-0000-000000000000",
    "LatLngId": "00000000-0000-0000-0000-000000000000",
    "Label": "Кемпинг-парк «Святобор»",
    "Description": null,
    "LatLng": {
      "Id": "00000000-0000-0000-0000-000000000000",
      "Lat": 50.427071,
      "Lng": 30.152794
    }
  },
  {
    "Id": "00000000-0000-0000-0000-000000000000",
    "LatLngId": "00000000-0000-0000-0000-000000000000",
    "Label": "Кладбище самолетов в Запорожье",
    "Description": null,
    "LatLng": {
      "Id": "00000000-0000-0000-0000-000000000000",
      "Lat": 47.915646,
      "Lng": 34.965345
    }
  },
  {
    "Id": "00000000-0000-0000-0000-000000000000",
    "LatLngId": "00000000-0000-0000-0000-000000000000",
    "Label": "Термальный бассейн \u0026quot;Жаворонок\u0026quot; в Берегово",
    "Description": null,
    "LatLng": {
      "Id": "00000000-0000-0000-0000-000000000000",
      "Lat": 48.213063,
      "Lng": 22.657832
    }
  },
  {
    "Id": "00000000-0000-0000-0000-000000000000",
    "LatLngId": "00000000-0000-0000-0000-000000000000",
    "Label": "Замок Попова (Васильевка)",
    "Description": null,
    "LatLng": {
      "Id": "00000000-0000-0000-0000-000000000000",
      "Lat": 47.446977,
      "Lng": 35.276603
    }
  },
  {
    "Id": "00000000-0000-0000-0000-000000000000",
    "LatLngId": "00000000-0000-0000-0000-000000000000",
    "Label": "Горячий источник в Счастливцево",
    "Description": null,
    "LatLng": {
      "Id": "00000000-0000-0000-0000-000000000000",
      "Lat": 46.004675,
      "Lng": 34.847978
    }
  },
  {
    "Id": "00000000-0000-0000-0000-000000000000",
    "LatLngId": "00000000-0000-0000-0000-000000000000",
    "Label": "Термальные источники в селе Долгое",
    "Description": null,
    "LatLng": {
      "Id": "00000000-0000-0000-0000-000000000000",
      "Lat": 48.3816749,
      "Lng": 23.287555
    }
  },
  {
    "Id": "00000000-0000-0000-0000-000000000000",
    "LatLngId": "00000000-0000-0000-0000-000000000000",
    "Label": "Хутор Савки",
    "Description": null,
    "LatLng": {
      "Id": "00000000-0000-0000-0000-000000000000",
      "Lat": 50.3754,
      "Lng": 30.2639
    }
  },
  {
    "Id": "00000000-0000-0000-0000-000000000000",
    "LatLngId": "00000000-0000-0000-0000-000000000000",
    "Label": "Шелеховское озеро",
    "Description": null,
    "LatLng": {
      "Id": "00000000-0000-0000-0000-000000000000",
      "Lat": 50.716641,
      "Lng": 34.501638
    }
  },
  {
    "Id": "00000000-0000-0000-0000-000000000000",
    "LatLngId": "00000000-0000-0000-0000-000000000000",
    "Label": "Черногора",
    "Description": null,
    "LatLng": {
      "Id": "00000000-0000-0000-0000-000000000000",
      "Lat": 48.16049,
      "Lng": 24.500289
    }
  },
  {
    "Id": "00000000-0000-0000-0000-000000000000",
    "LatLngId": "00000000-0000-0000-0000-000000000000",
    "Label": "Музей народной архитектуры, быта и детского творчества в селе Прелестное",
    "Description": null,
    "LatLng": {
      "Id": "00000000-0000-0000-0000-000000000000",
      "Lat": 0,
      "Lng": 0
    }
  },
  {
    "Id": "00000000-0000-0000-0000-000000000000",
    "LatLngId": "00000000-0000-0000-0000-000000000000",
    "Label": "Стольское городище",
    "Description": null,
    "LatLng": {
      "Id": "00000000-0000-0000-0000-000000000000",
      "Lat": 49.721218,
      "Lng": 24.086689
    }
  },
  {
    "Id": "00000000-0000-0000-0000-000000000000",
    "LatLngId": "00000000-0000-0000-0000-000000000000",
    "Label": "Кладбище самолетов в Полтаве",
    "Description": null,
    "LatLng": {
      "Id": "00000000-0000-0000-0000-000000000000",
      "Lat": 49.5768,
      "Lng": 34.3928
    }
  },
  {
    "Id": "00000000-0000-0000-0000-000000000000",
    "LatLngId": "00000000-0000-0000-0000-000000000000",
    "Label": "Мавзолей Потоцких",
    "Description": null,
    "LatLng": {
      "Id": "00000000-0000-0000-0000-000000000000",
      "Lat": 48.862009,
      "Lng": 28.710647
    }
  },
  {
    "Id": "00000000-0000-0000-0000-000000000000",
    "LatLngId": "00000000-0000-0000-0000-000000000000",
    "Label": "Усадьба Остен-Сакен",
    "Description": null,
    "LatLng": {
      "Id": "00000000-0000-0000-0000-000000000000",
      "Lat": 50.57661,
      "Lng": 30.108688
    }
  },
  {
    "Id": "00000000-0000-0000-0000-000000000000",
    "LatLngId": "00000000-0000-0000-0000-000000000000",
    "Label": "Винзавод князя Трубецкого",
    "Description": null,
    "LatLng": {
      "Id": "00000000-0000-0000-0000-000000000000",
      "Lat": 47.0188,
      "Lng": 33.388353
    }
  },
  {
    "Id": "00000000-0000-0000-0000-000000000000",
    "LatLngId": "00000000-0000-0000-0000-000000000000",
    "Label": "Озеро Молодости в Буковеле",
    "Description": null,
    "LatLng": {
      "Id": "00000000-0000-0000-0000-000000000000",
      "Lat": 48.570809,
      "Lng": 24.39736
    }
  },
  {
    "Id": "00000000-0000-0000-0000-000000000000",
    "LatLngId": "00000000-0000-0000-0000-000000000000",
    "Label": "Дворец Потоцких в Тульчине",
    "Description": null,
    "LatLng": {
      "Id": "00000000-0000-0000-0000-000000000000",
      "Lat": 48.676945,
      "Lng": 28.859622
    }
  },
  {
    "Id": "00000000-0000-0000-0000-000000000000",
    "LatLngId": "00000000-0000-0000-0000-000000000000",
    "Label": "Термальный курорт Латорица",
    "Description": null,
    "LatLng": {
      "Id": "00000000-0000-0000-0000-000000000000",
      "Lat": 48.429244,
      "Lng": 22.70582
    }
  },
  {
    "Id": "00000000-0000-0000-0000-000000000000",
    "LatLngId": "00000000-0000-0000-0000-000000000000",
    "Label": "Карьер Калюжа и Малинский подводный музей",
    "Description": null,
    "LatLng": {
      "Id": "00000000-0000-0000-0000-000000000000",
      "Lat": 50.807708,
      "Lng": 29.318338
    }
  },
  {
    "Id": "00000000-0000-0000-0000-000000000000",
    "LatLngId": "00000000-0000-0000-0000-000000000000",
    "Label": "Монорельс",
    "Description": null,
    "LatLng": {
      "Id": "00000000-0000-0000-0000-000000000000",
      "Lat": 50.60455,
      "Lng": 30.266382
    }
  },
  {
    "Id": "00000000-0000-0000-0000-000000000000",
    "LatLngId": "00000000-0000-0000-0000-000000000000",
    "Label": "Музей народной архитектуры и быта в Черновцах",
    "Description": null,
    "LatLng": {
      "Id": "00000000-0000-0000-0000-000000000000",
      "Lat": 48.290155,
      "Lng": 25.983436
    }
  },
  {
    "Id": "00000000-0000-0000-0000-000000000000",
    "LatLngId": "00000000-0000-0000-0000-000000000000",
    "Label": "Косино",
    "Description": null,
    "LatLng": {
      "Id": "00000000-0000-0000-0000-000000000000",
      "Lat": 48.3045,
      "Lng": 22.4758
    }
  },
  {
    "Id": "00000000-0000-0000-0000-000000000000",
    "LatLngId": "00000000-0000-0000-0000-000000000000",
    "Label": "Болото Ирдынь",
    "Description": null,
    "LatLng": {
      "Id": "00000000-0000-0000-0000-000000000000",
      "Lat": 49.445997,
      "Lng": 31.677181
    }
  },
  {
    "Id": "00000000-0000-0000-0000-000000000000",
    "LatLngId": "00000000-0000-0000-0000-000000000000",
    "Label": "Музей «Скала»",
    "Description": null,
    "LatLng": {
      "Id": "00000000-0000-0000-0000-000000000000",
      "Lat": 50.985218,
      "Lng": 28.647722
    }
  },
  {
    "Id": "00000000-0000-0000-0000-000000000000",
    "LatLngId": "00000000-0000-0000-0000-000000000000",
    "Label": "Замок Курисов",
    "Description": null,
    "LatLng": {
      "Id": "00000000-0000-0000-0000-000000000000",
      "Lat": 46.96424,
      "Lng": 30.965111
    }
  },
  {
    "Id": "00000000-0000-0000-0000-000000000000",
    "LatLngId": "00000000-0000-0000-0000-000000000000",
    "Label": "Самолет Брежнева",
    "Description": null,
    "LatLng": {
      "Id": "00000000-0000-0000-0000-000000000000",
      "Lat": 50.271465,
      "Lng": 30.290234
    }
  },
  {
    "Id": "00000000-0000-0000-0000-000000000000",
    "LatLngId": "00000000-0000-0000-0000-000000000000",
    "Label": "Коростышевский карьер",
    "Description": null,
    "LatLng": {
      "Id": "00000000-0000-0000-0000-000000000000",
      "Lat": 50.323597,
      "Lng": 29.080291
    }
  },
  {
    "Id": "00000000-0000-0000-0000-000000000000",
    "LatLngId": "00000000-0000-0000-0000-000000000000",
    "Label": "Велятин",
    "Description": null,
    "LatLng": {
      "Id": "00000000-0000-0000-0000-000000000000",
      "Lat": 48.0634,
      "Lng": 23.1849
    }
  },
  {
    "Id": "00000000-0000-0000-0000-000000000000",
    "LatLngId": "00000000-0000-0000-0000-000000000000",
    "Label": "Дом-стена",
    "Description": null,
    "LatLng": {
      "Id": "00000000-0000-0000-0000-000000000000",
      "Lat": 46.48911,
      "Lng": 30.7386
    }
  },
  {
    "Id": "00000000-0000-0000-0000-000000000000",
    "LatLngId": "00000000-0000-0000-0000-000000000000",
    "Label": "Зеленые Хутора Таврии",
    "Description": null,
    "LatLng": {
      "Id": "00000000-0000-0000-0000-000000000000",
      "Lat": 46.537823,
      "Lng": 32.656086
    }
  },
  {
    "Id": "00000000-0000-0000-0000-000000000000",
    "LatLngId": "00000000-0000-0000-0000-000000000000",
    "Label": "Триполье",
    "Description": null,
    "LatLng": {
      "Id": "00000000-0000-0000-0000-000000000000",
      "Lat": 50.0722,
      "Lng": 30.4607
    }
  },
  {
    "Id": "00000000-0000-0000-0000-000000000000",
    "LatLngId": "00000000-0000-0000-0000-000000000000",
    "Label": "Обсерватория Белый слон",
    "Description": null,
    "LatLng": {
      "Id": "00000000-0000-0000-0000-000000000000",
      "Lat": 48.0241,
      "Lng": 24.3732
    }
  },
  {
    "Id": "00000000-0000-0000-0000-000000000000",
    "LatLngId": "00000000-0000-0000-0000-000000000000",
    "Label": "Меловые горы",
    "Description": null,
    "LatLng": {
      "Id": "00000000-0000-0000-0000-000000000000",
      "Lat": 49.9061337,
      "Lng": 37.7531433
    }
  },
  {
    "Id": "00000000-0000-0000-0000-000000000000",
    "LatLngId": "00000000-0000-0000-0000-000000000000",
    "Label": "Скалолазный район Звониха",
    "Description": null,
    "LatLng": {
      "Id": "00000000-0000-0000-0000-000000000000",
      "Lat": 48.975962,
      "Lng": 28.472651
    }
  },
  {
    "Id": "00000000-0000-0000-0000-000000000000",
    "LatLngId": "00000000-0000-0000-0000-000000000000",
    "Label": "Межреченский парк",
    "Description": null,
    "LatLng": {
      "Id": "00000000-0000-0000-0000-000000000000",
      "Lat": 51.241767,
      "Lng": 30.792378
    }
  },
  {
    "Id": "00000000-0000-0000-0000-000000000000",
    "LatLngId": "00000000-0000-0000-0000-000000000000",
    "Label": "Холодный Яр",
    "Description": null,
    "LatLng": {
      "Id": "00000000-0000-0000-0000-000000000000",
      "Lat": 49.155324,
      "Lng": 32.254164
    }
  },
  {
    "Id": "00000000-0000-0000-0000-000000000000",
    "LatLngId": "00000000-0000-0000-0000-000000000000",
    "Label": "Кемпинг в Лебедевке",
    "Description": null,
    "LatLng": {
      "Id": "00000000-0000-0000-0000-000000000000",
      "Lat": 45.827462,
      "Lng": 30.147437
    }
  },
  {
    "Id": "00000000-0000-0000-0000-000000000000",
    "LatLngId": "00000000-0000-0000-0000-000000000000",
    "Label": "Черновцы",
    "Description": null,
    "LatLng": {
      "Id": "00000000-0000-0000-0000-000000000000",
      "Lat": 48.1727,
      "Lng": 25.5604
    }
  },
  {
    "Id": "00000000-0000-0000-0000-000000000000",
    "LatLngId": "00000000-0000-0000-0000-000000000000",
    "Label": "Город-крепость Тустань",
    "Description": null,
    "LatLng": {
      "Id": "00000000-0000-0000-0000-000000000000",
      "Lat": 49.1129,
      "Lng": 23.2435
    }
  },
  {
    "Id": "00000000-0000-0000-0000-000000000000",
    "LatLngId": "00000000-0000-0000-0000-000000000000",
    "Label": "Львов",
    "Description": null,
    "LatLng": {
      "Id": "00000000-0000-0000-0000-000000000000",
      "Lat": 49.5,
      "Lng": 24
    }
  },
  {
    "Id": "00000000-0000-0000-0000-000000000000",
    "LatLngId": "00000000-0000-0000-0000-000000000000",
    "Label": "Берегово",
    "Description": null,
    "LatLng": {
      "Id": "00000000-0000-0000-0000-000000000000",
      "Lat": 48.1209,
      "Lng": 22.3815
    }
  },
  {
    "Id": "00000000-0000-0000-0000-000000000000",
    "LatLngId": "00000000-0000-0000-0000-000000000000",
    "Label": "Суботов",
    "Description": null,
    "LatLng": {
      "Id": "00000000-0000-0000-0000-000000000000",
      "Lat": 49.0528,
      "Lng": 32.3302
    }
  },
  {
    "Id": "00000000-0000-0000-0000-000000000000",
    "LatLngId": "00000000-0000-0000-0000-000000000000",
    "Label": "Жолква",
    "Description": null,
    "LatLng": {
      "Id": "00000000-0000-0000-0000-000000000000",
      "Lat": 50.04,
      "Lng": 23.58
    }
  },
  {
    "Id": "00000000-0000-0000-0000-000000000000",
    "LatLngId": "00000000-0000-0000-0000-000000000000",
    "Label": "Аэродром «Чайка»",
    "Description": null,
    "LatLng": {
      "Id": "00000000-0000-0000-0000-000000000000",
      "Lat": 50.434479,
      "Lng": 30.304548
    }
  },
  {
    "Id": "00000000-0000-0000-0000-000000000000",
    "LatLngId": "00000000-0000-0000-0000-000000000000",
    "Label": "Чернобыль - зона отчуждения",
    "Description": null,
    "LatLng": {
      "Id": "00000000-0000-0000-0000-000000000000",
      "Lat": 51.16,
      "Lng": 30.13
    }
  },
  {
    "Id": "00000000-0000-0000-0000-000000000000",
    "LatLngId": "00000000-0000-0000-0000-000000000000",
    "Label": "Диканька",
    "Description": null,
    "LatLng": {
      "Id": "00000000-0000-0000-0000-000000000000",
      "Lat": 49.492,
      "Lng": 34.3203
    }
  },
  {
    "Id": "00000000-0000-0000-0000-000000000000",
    "LatLngId": "00000000-0000-0000-0000-000000000000",
    "Label": "Полтава - сердце Украины",
    "Description": null,
    "LatLng": {
      "Id": "00000000-0000-0000-0000-000000000000",
      "Lat": 49.3428,
      "Lng": 34.3407
    }
  },
  {
    "Id": "00000000-0000-0000-0000-000000000000",
    "LatLngId": "00000000-0000-0000-0000-000000000000",
    "Label": "Самая высокая точка Украины - Говерла",
    "Description": null,
    "LatLng": {
      "Id": "00000000-0000-0000-0000-000000000000",
      "Lat": 48.0938,
      "Lng": 24.3012
    }
  },
  {
    "Id": "00000000-0000-0000-0000-000000000000",
    "LatLngId": "00000000-0000-0000-0000-000000000000",
    "Label": "Миргород",
    "Description": null,
    "LatLng": {
      "Id": "00000000-0000-0000-0000-000000000000",
      "Lat": 49.575,
      "Lng": 33.3645
    }
  },
  {
    "Id": "00000000-0000-0000-0000-000000000000",
    "LatLngId": "00000000-0000-0000-0000-000000000000",
    "Label": "Дворец Румянцева-Задунайского",
    "Description": null,
    "LatLng": {
      "Id": "00000000-0000-0000-0000-000000000000",
      "Lat": 51.641603,
      "Lng": 33.061567
    }
  },
  {
    "Id": "00000000-0000-0000-0000-000000000000",
    "LatLngId": "00000000-0000-0000-0000-000000000000",
    "Label": "Озеро Бребенескул",
    "Description": null,
    "LatLng": {
      "Id": "00000000-0000-0000-0000-000000000000",
      "Lat": 48.0606,
      "Lng": 24.3344
    }
  },
  {
    "Id": "00000000-0000-0000-0000-000000000000",
    "LatLngId": "00000000-0000-0000-0000-000000000000",
    "Label": "Аскания-Нова",
    "Description": null,
    "LatLng": {
      "Id": "00000000-0000-0000-0000-000000000000",
      "Lat": 46.2707,
      "Lng": 33.5251
    }
  },
  {
    "Id": "00000000-0000-0000-0000-000000000000",
    "LatLngId": "00000000-0000-0000-0000-000000000000",
    "Label": "Збараж",
    "Description": null,
    "LatLng": {
      "Id": "00000000-0000-0000-0000-000000000000",
      "Lat": 49.3952,
      "Lng": 25.4631
    }
  },
  {
    "Id": "00000000-0000-0000-0000-000000000000",
    "LatLngId": "00000000-0000-0000-0000-000000000000",
    "Label": "Гетьманская столица Батурин",
    "Description": null,
    "LatLng": {
      "Id": "00000000-0000-0000-0000-000000000000",
      "Lat": 51.2,
      "Lng": 32.53
    }
  },
  {
    "Id": "00000000-0000-0000-0000-000000000000",
    "LatLngId": "00000000-0000-0000-0000-000000000000",
    "Label": "Лядовский скальный монастырь",
    "Description": null,
    "LatLng": {
      "Id": "00000000-0000-0000-0000-000000000000",
      "Lat": 48.496989,
      "Lng": 27.608685
    }
  },
  {
    "Id": "00000000-0000-0000-0000-000000000000",
    "LatLngId": "00000000-0000-0000-0000-000000000000",
    "Label": "Токовский карьер",
    "Description": null,
    "LatLng": {
      "Id": "00000000-0000-0000-0000-000000000000",
      "Lat": 47.680717,
      "Lng": 33.941644
    }
  },
  {
    "Id": "00000000-0000-0000-0000-000000000000",
    "LatLngId": "00000000-0000-0000-0000-000000000000",
    "Label": "Скалы Довбуша",
    "Description": null,
    "LatLng": {
      "Id": "00000000-0000-0000-0000-000000000000",
      "Lat": 49.0235,
      "Lng": 23.4058
    }
  },
  {
    "Id": "00000000-0000-0000-0000-000000000000",
    "LatLngId": "00000000-0000-0000-0000-000000000000",
    "Label": "Припять",
    "Description": null,
    "LatLng": {
      "Id": "00000000-0000-0000-0000-000000000000",
      "Lat": 51.24,
      "Lng": 30.03
    }
  },
  {
    "Id": "00000000-0000-0000-0000-000000000000",
    "LatLngId": "00000000-0000-0000-0000-000000000000",
    "Label": "Озеро Несамовите",
    "Description": null,
    "LatLng": {
      "Id": "00000000-0000-0000-0000-000000000000",
      "Lat": 48.721,
      "Lng": 24.3221
    }
  },
  {
    "Id": "00000000-0000-0000-0000-000000000000",
    "LatLngId": "00000000-0000-0000-0000-000000000000",
    "Label": "Мезинский национальный природный парк",
    "Description": null,
    "LatLng": {
      "Id": "00000000-0000-0000-0000-000000000000",
      "Lat": 51.4309,
      "Lng": 32.1712
    }
  },
  {
    "Id": "00000000-0000-0000-0000-000000000000",
    "LatLngId": "00000000-0000-0000-0000-000000000000",
    "Label": "Каменное село",
    "Description": null,
    "LatLng": {
      "Id": "00000000-0000-0000-0000-000000000000",
      "Lat": 51.184,
      "Lng": 27.581
    }
  },
  {
    "Id": "00000000-0000-0000-0000-000000000000",
    "LatLngId": "00000000-0000-0000-0000-000000000000",
    "Label": "Ворочевское озеро",
    "Description": null,
    "LatLng": {
      "Id": "00000000-0000-0000-0000-000000000000",
      "Lat": 48.675259,
      "Lng": 22.500646
    }
  },
  {
    "Id": "00000000-0000-0000-0000-000000000000",
    "LatLngId": "00000000-0000-0000-0000-000000000000",
    "Label": "Днестровский каньон",
    "Description": null,
    "LatLng": {
      "Id": "00000000-0000-0000-0000-000000000000",
      "Lat": 48.634678,
      "Lng": 25.739124
    }
  },
  {
    "Id": "00000000-0000-0000-0000-000000000000",
    "LatLngId": "00000000-0000-0000-0000-000000000000",
    "Label": "Крепость Аккерман",
    "Description": null,
    "LatLng": {
      "Id": "00000000-0000-0000-0000-000000000000",
      "Lat": 46.201111,
      "Lng": 30.350556
    }
  },
  {
    "Id": "00000000-0000-0000-0000-000000000000",
    "LatLngId": "00000000-0000-0000-0000-000000000000",
    "Label": "Хортица",
    "Description": null,
    "LatLng": {
      "Id": "00000000-0000-0000-0000-000000000000",
      "Lat": 47.833406,
      "Lng": 35.08705
    }
  },
  {
    "Id": "00000000-0000-0000-0000-000000000000",
    "LatLngId": "00000000-0000-0000-0000-000000000000",
    "Label": "Озеро Синевир",
    "Description": null,
    "LatLng": {
      "Id": "00000000-0000-0000-0000-000000000000",
      "Lat": 48.617209,
      "Lng": 23.684054
    }
  },
  {
    "Id": "00000000-0000-0000-0000-000000000000",
    "LatLngId": "00000000-0000-0000-0000-000000000000",
    "Label": "Шацкие озера",
    "Description": null,
    "LatLng": {
      "Id": "00000000-0000-0000-0000-000000000000",
      "Lat": 51.503466,
      "Lng": 23.833504
    }
  },
  {
    "Id": "00000000-0000-0000-0000-000000000000",
    "LatLngId": "00000000-0000-0000-0000-000000000000",
    "Label": "Озеро Свитязь",
    "Description": null,
    "LatLng": {
      "Id": "00000000-0000-0000-0000-000000000000",
      "Lat": 51.50194,
      "Lng": 23.846134
    }
  },
  {
    "Id": "00000000-0000-0000-0000-000000000000",
    "LatLngId": "00000000-0000-0000-0000-000000000000",
    "Label": "Боливар",
    "Description": null,
    "LatLng": {
      "Id": "00000000-0000-0000-0000-000000000000",
      "Lat": 50.198914,
      "Lng": 30.262543
    }
  },
  {
    "Id": "00000000-0000-0000-0000-000000000000",
    "LatLngId": "00000000-0000-0000-0000-000000000000",
    "Label": "Озеро Вита",
    "Description": null,
    "LatLng": {
      "Id": "00000000-0000-0000-0000-000000000000",
      "Lat": 48.6966259,
      "Lng": 23.3600235
    }
  },
  {
    "Id": "00000000-0000-0000-0000-000000000000",
    "LatLngId": "00000000-0000-0000-0000-000000000000",
    "Label": "Озеро в Халепье",
    "Description": null,
    "LatLng": {
      "Id": "00000000-0000-0000-0000-000000000000",
      "Lat": 50.120335,
      "Lng": 30.833948
    }
  }
]
